[{"PRENAME":"Alberta","Dumbells":6,"Home gym equipment":4,"Excercise bike":0,"treadmill":90,"Step machine":0,"Strength":10,"Cardio":90,"lat":53.535411,"lon":-113.507996},{"PRENAME":"British Columbia","Dumbells":8,"Home gym equipment":3,"Excercise bike":0,"treadmill":88,"Step machine":1,"Strength":11,"Cardio":89,"lat":49.2608724,"lon":-123.1139529},{"PRENAME":"Manitoba","Dumbells":5,"Home gym equipment":4,"Excercise bike":0,"treadmill":91,"Step machine":0,"Strength":9,"Cardio":91,"lat":49.8955367,"lon":-97.1384584},{"PRENAME":"New Brunswick","Dumbells":6,"Home gym equipment":3,"Excercise bike":0,"treadmill":91,"Step machine":0,"Strength":9,"Cardio":91,"lat":45.94795935,"lon":-66.653362359},{"PRENAME":"Newfoundland and Labrador","Dumbells":11,"Home gym equipment":1,"Excercise bike":0,"treadmill":88,"Step machine":0,"Strength":12,"Cardio":88,"lat":47.561701,"lon":-52.715149},{"PRENAME":"Northwest Territories","Dumbells":0,"Home gym equipment":0,"Excercise bike":0,"treadmill":100,"Step machine":0,"Strength":0,"Cardio":100,"lat":62.4540807,"lon":-114.377385},{"PRENAME":"Nova Scotia","Dumbells":6,"Home gym equipment":5,"Excercise bike":0,"treadmill":89,"Step machine":0,"Strength":11,"Cardio":89,"lat":44.648618,"lon":-63.5859487},{"PRENAME":"Nunavut","Dumbells":0,"Home gym equipment":0,"Excercise bike":0,"treadmill":0,"Step machine":0,"Strength":0,"Cardio":0,"lat":63.74944,"lon":-68.521857},{"PRENAME":"Ontario","Dumbells":7,"Home gym equipment":3,"Excercise bike":0,"treadmill":90,"Step machine":0,"Strength":10,"Cardio":90,"lat":43.6534817,"lon":-79.3839347},{"PRENAME":"Prince Edward Island","Dumbells":0,"Home gym equipment":0,"Excercise bike":0,"treadmill":100,"Step machine":0,"Strength":0,"Cardio":100,"lat":46.234953,"lon":-63.132935},{"PRENAME":"Qu\u00e9bec","Dumbells":8,"Home gym equipment":3,"Excercise bike":0,"treadmill":88,"Step machine":1,"Strength":11,"Cardio":89,"lat":46.8259601,"lon":-71.2352226},{"PRENAME":"Saskatchewan","Dumbells":2,"Home gym equipment":1,"Excercise bike":0,"treadmill":97,"Step machine":0,"Strength":3,"Cardio":97,"lat":50.44876,"lon":-104.61731},{"PRENAME":"Yukon","Dumbells":0,"Home gym equipment":0,"Excercise bike":0,"treadmill":100,"Step machine":0,"Strength":0,"Cardio":100,"lat":60.721571,"lon":-135.054932}]